{"updated": "2026-05-03 21:06:59 KST", "source": "ITS+ffmpeg_v10", "total": 138, "displayed": 6, "captured": 0, "totalSizeKB": 0, "center": {"lat": 36.763, "lng": 126.887}, "cctvs": [{"id": "CCTV-01", "name": "[국도 21호선] 아산 시전사거리", "url": "http://cctvsec.ktict.co.kr/4588/xYXriNGwgqwkoJHE2E7q6htmPoLh6TfS+5oBBK9anLP6c2GEpyhYjCGizaeOscbvzO2kkVUfaKxfDJpw8V1QzbGh/+1NYjqExDcCJrINZUo=", "lat": 36.749568, "lng": 126.887502, "distance": 1.49, "status": "url_only", "video": "", "thumbnail": ""}, {"id": "CCTV-02", "name": "[국도21] 아산 금산삼거리", "url": "http://cctvsec.ktict.co.kr/71822/kaA3feY+qqom1A9Bkhx98wxBn8r6Vx1AtEZWJp0B1ixRKtNEBDxL5HU6BtO1KrjVbBox500ARBlLQ1uEoqUNir1OE1Fuw6cFEzIRlxRcAc4=", "lat": 36.74882, "lng": 126.88243, "distance": 1.63, "status": "url_only", "video": "", "thumbnail": ""}, {"id": "CCTV-03", "name": "[국도21] 아산 향산사거리", "url": "http://cctvsec.ktict.co.kr/71824/q/fQO2OdHFjh0DXtttLR3teQC3Ndoy9PbM+3mkLrpEOK2CPPqVAuGcD+mScN2DSkVE8ywFYk7CrJ+grmSqfM09bxi7LbJPFPNJk2q8SoSAI=", "lat": 36.75875, "lng": 126.91179, "distance": 2.26, "status": "url_only", "video": "", "thumbnail": ""}, {"id": "CCTV-04", "name": "[국도21] 아산 금산리교차로", "url": "http://cctvsec.ktict.co.kr/71821/xxD5y6wwOC5UFIG8KoZ60Ms6nXJrs5uG3MnpT7RXNlf/mXRFN3KmuqWYR93iSNnDel3fjHCWjuKXhacv9ef570OWvdgNBBhYXIwuVZeAayw=", "lat": 36.74708575, "lng": 126.8675985, "distance": 2.47, "status": "url_only", "video": "", "thumbnail": ""}, {"id": "CCTV-05", "name": "[국도21] 아산 와산삼거리", "url": "http://cctvsec.ktict.co.kr/71823/NJrUpEucEUYy8fgTdsamGMtvuRHt1VSBbGYcIm4Vhk3HB0LURvnSBD6/AsK0Ts3bQfMWLGhj7Jfz5KJ30qIcILI2/Yf9y4kiYsg3lh5jYtk=", "lat": 36.76128231, "lng": 126.915047, "distance": 2.51, "status": "url_only", "video": "", "thumbnail": ""}, {"id": "CCTV-06", "name": "[국도 21호선] 아산 와산리", "url": "http://cctvsec.ktict.co.kr/4597/tv7tsHYNXjj7nfbuQ+Icqcs4NPZJ248JweSgJsMhctHF/qa76TmNzL1YV0FN9IPZ/mLwxs8jTQ+VMx+rjq09FrlKaiKvfXsJZxFZ50r2BrY=", "lat": 36.763591, "lng": 126.922575, "distance": 3.17, "status": "url_only", "video": "", "thumbnail": ""}]}